{
  "favorite": [
    {
      "id": "1",
      "csNm": "애니메이션박물관",
      "addr": "강원도 춘천시 서면 현암리 367-3 지상주차장",
      "chargeTp": "2",
      "cpNm": "급속02",
      "cpTp": "10",
      "longi": "127.689949",
      "lat": "37.893901"
    },
    {
      "id": "2",
      "csNm": "관악동작지사",
      "addr": "서울특별시 동작구 동작대로 19 입구우측 문폐쇄시 ☎025802268",
      "chargeTp": "2",
      "cpNm": "급속01",
      "cpTp": "10",
      "longi": "126.9809567",
      "lat": "37.47830829"
    },
    {
      "id": 3,
      "csNm": "관악구 평생학습관",
      "addr": "서울특별시 관악구 신림동 1577-4 지하1층 주차장",
      "chargeTp": "2",
      "cpNm": "급속01",
      "cpTp": "7",
      "longi": "126.92242741647",
      "lat": "37.4829505987253"
    },
    {
      "id": 4,
      "csNm": "부천지사_공용",
      "addr": "경기도 부천시 도당동 185-148 고객주차장",
      "chargeTp": "1",
      "cpNm": "완속06",
      "cpTp": "3",
      "longi": "126.786374468798",
      "lat": "37.5070808886724"
    },
    {
      "id": 5,
      "csNm": "청원구청",
      "addr": "충청북도 청주시 청원구 우암동 354-23 지하주차장",
      "chargeTp": "2",
      "cpNm": "급속02",
      "cpTp": "10",
      "longi": "127.486301",
      "lat": "36.650882"
    },
    {
      "id": 6,
      "csNm": "LH서울지사",
      "addr": "서울특별시 강남구 선릉로 121길 12 좌측 지상주차장",
      "chargeTp": "2",
      "cpNm": "급속01",
      "cpTp": "10",
      "longi": "127.040862",
      "lat": "37.514473"
    }
  ]
}